name_muni,code_muni,lat,lon
Açailândia,2100055.0,-4.785930142628028,-47.33239080813222
Afonso Cunha,2100105.0,-4.214799547894297,-43.29738855192177
Água Doce Do Maranhão,2100154.0,-2.9465378190671774,-42.166257434341404
Alcântara,2100204.0,-2.3792524192046844,-44.539846342371256
Aldeias Altas,2100303.0,-4.502856700011401,-43.38340679291574
Altamira Do Maranhão,2100402.0,-4.167065446508514,-45.502786661837156
Alto Alegre Do Maranhão,2100436.0,-4.2106438952864975,-44.39583719966702
Alto Alegre Do Pindaré,2100477.0,-3.8703634361746593,-46.00174120951969
Alto Parnaíba,2100501.0,-9.509045897689287,-46.213294902702785
Amapá Do Maranhão,2100550.0,-1.6730617875937688,-45.94799677675618
Amarante Do Maranhão,2100600.0,-5.278547812272266,-46.582024210536694
Anajatuba,2100709.0,-3.2557287127500647,-44.59893448596153
Anapurus,2100808.0,-3.543949135388596,-43.10774791621155
Apicum-Açu,2100832.0,-1.5355306328293636,-45.0873783062317
Araguanã,2100873.0,-3.07910487505906,-45.78725706546894
Araioses,2100907.0,-2.972261050956459,-42.01702301759947
Arame,2100956.0,-5.027749606928267,-45.94596273384753
Arari,2101004.0,-3.5333842235487447,-44.72736833128165
Axixá,2101103.0,-2.8438056627023305,-44.09862654029373
Bacabal,2101202.0,-4.17118041518506,-44.76201898841737
Bacabeira,2101251.0,-2.936399184803212,-44.35797077351493
Bacuri,2101301.0,-1.6832266935097313,-45.162624658097066
Bacurituba,2101350.0,-2.699551512783215,-44.69511287487754
Balsas,2101400.0,-8.238874762638243,-46.34314521170624
Barão De Grajaú,2101509.0,-6.592883664095195,-43.18807881574657
Barra Do Corda,2101608.0,-5.504210609310618,-45.18308050890582
Barreirinhas,2101707.0,-2.839839643520071,-42.91018014055212
Belágua,2101731.0,-3.1013128772778,-43.46239406023739
Bela Vista Do Maranhão,2101772.0,-3.75783990885608,-45.26573601317349
Benedito Leite,2101806.0,-7.1207019986314455,-44.56839827899419
Bequimão,2101905.0,-2.431009899492558,-44.785692137977634
Bernardo Do Mearim,2101939.0,-4.68012990790006,-44.68788340200125
Boa Vista Do Gurupi,2101970.0,-1.76205040955354,-46.1787836282009
Bom Jardim,2102002.0,-3.900475613587622,-46.41830460756486
Bom Jesus Das Selvas,2102036.0,-4.60082504145518,-46.68865030853187
Bom Lugar,2102077.0,-4.346740760746778,-45.02097647444637
Brejo,2102101.0,-3.687005067624678,-42.82848429404693
Brejo De Areia,2102150.0,-4.365116350856831,-45.65005384012928
Buriti,2102200.0,-3.9004842311049885,-43.00151976887406
Buriti Bravo,2102309.0,-5.789233158434117,-43.83057018720489
Buriticupu,2102325.0,-4.493951440031724,-46.342407595408055
Buritirana,2102358.0,-5.518169699918318,-47.06175189509323
Cachoeira Grande,2102374.0,-3.145229941754928,-43.919277841029825
Cajapió,2102408.0,-2.874358613939822,-44.59897623481715
Cajari,2102507.0,-3.390730698337259,-45.05278199463426
Campestre Do Maranhão,2102556.0,-6.176231660570348,-47.263835640239655
Cândido Mendes,2102606.0,-1.6173815397748625,-45.67670969112746
Cantanhede,2102705.0,-3.621653491922017,-44.262762256894916
Capinzal Do Norte,2102754.0,-4.682204592628652,-44.30621691792829
Carolina,2102804.0,-7.376735277267508,-47.211226467463874
Carutapera,2102903.0,-1.3503374483878758,-46.02946188461582
Caxias,2103000.0,-4.866471919146646,-43.29924326400366
Cedral,2103109.0,-1.9774140665452393,-44.59370142342495
Central Do Maranhão,2103125.0,-2.2549500824632833,-44.8579455142958
Centro Do Guilherme,2103158.0,-2.428699739775464,-46.116972240362834
Centro Novo Do Maranhão,2103174.0,-3.0710732921757846,-46.533733624309946
Chapadinha,2103208.0,-3.848834319049046,-43.45395381667422
Cidelândia,2103257.0,-5.057213393791924,-47.82978036120941
Codó,2103307.0,-4.607252440320227,-43.88592665767392
Coelho Neto,2103406.0,-4.248122833739039,-43.11190709640307
Colinas,2103505.0,-6.055712858902954,-44.181406008959925
Conceição Do Lago-Açu,2103554.0,-3.7970966665589843,-44.83848441110443
Coroatá,2103604.0,-4.102248926068178,-44.145273042811375
Cururupu,2103703.0,-1.6730822479541052,-44.820540472598836
Davinópolis,2103752.0,-5.598821788234562,-47.30023633772333
Dom Pedro,2103802.0,-5.021301322746634,-44.39713405136084
Duque Bacelar,2103901.0,-4.099127255379144,-43.009887159835706
Esperantinópolis,2104008.0,-4.899123476137444,-44.89047186051185
Estreito,2104057.0,-6.782470786463447,-47.20122057525867
Feira Nova Do Maranhão,2104073.0,-7.01867127717362,-46.62673422435952
Fernando Falcão,2104081.0,-6.173885596293981,-45.306194540874245
Formosa Da Serra Negra,2104099.0,-6.514278138598213,-46.186288726962424
Fortaleza Dos Nogueiras,2104107.0,-6.942024213015469,-46.08197041024198
Fortuna,2104206.0,-5.668446756313968,-44.02962285157481
Godofredo Viana,2104305.0,-1.3702930648851457,-45.76265280067403
Gonçalves Dias,2104404.0,-5.152231641506043,-44.17194851896208
Governador Archer,2104503.0,-4.999500440213342,-44.22143924833593
Governador Edison Lobão,2104552.0,-5.718543443969649,-47.324947488653414
Governador Eugênio Barros,2104602.0,-5.385275891855221,-44.06717837251797
Governador Luiz Rocha,2104628.0,-5.537053593364612,-44.0932260092253
Governador Newton Bello,2104651.0,-3.4190213772930274,-45.92598665219321
Governador Nunes Freire,2104677.0,-2.061736632936355,-45.81822839463371
Graça Aranha,2104701.0,-5.41467060075704,-44.31801514482914
Grajaú,2104800.0,-5.840383487495804,-46.01490478654757
Guimarães,2104909.0,-2.146231950758461,-44.66225013139712
Humberto De Campos,2105005.0,-2.668573302092341,-43.57545976666503
Icatu,2105104.0,-2.650745180996629,-43.86230579838548
Igarapé Do Meio,2105153.0,-3.656416867583592,-45.12357648407938
Igarapé Grande,2105203.0,-4.592062714984984,-44.826275576184244
Imperatriz,2105302.0,-5.339703075672085,-47.57522459232189
Itaipava Do Grajaú,2105351.0,-5.185165005255325,-45.67814475750673
Itapecuru Mirim,2105401.0,-3.3874971935083407,-44.277380130150384
Itinga Do Maranhão,2105427.0,-4.271408473184505,-47.26056007638448
Jatobá,2105450.0,-5.8522798844361,-44.294076605792945
Jenipapo Dos Vieiras,2105476.0,-5.392538421530957,-45.57584733957426
João Lisboa,2105500.0,-5.229430326777741,-47.12646472910723
Joselândia,2105609.0,-5.016075736237361,-44.75564730998245
Junco Do Maranhão,2105658.0,-1.9183496852486601,-46.117777792207825
Lago Da Pedra,2105708.0,-4.739021669393895,-45.205275430450314
Lago Do Junco,2105807.0,-4.52250908431374,-44.976561958395095
Lago Verde,2105906.0,-3.989377171002199,-44.881979573472044
Lagoa Do Mato,2105922.0,-6.03224610736592,-43.4956535335009
Lago Dos Rodrigues,2105948.0,-4.588651089214542,-44.93100656103877
Lagoa Grande Do Maranhão,2105963.0,-4.929710906490582,-45.40308963242993
Lajeado Novo,2105989.0,-6.103496906241999,-46.92955021671426
Lima Campos,2106003.0,-4.556882735595593,-44.46472557472385
Loreto,2106102.0,-7.220871815331007,-45.21978225780957
Luís Domingues,2106201.0,-1.3870457483743732,-45.889808734742715
Magalhães De Almeida,2106300.0,-3.2992564094238537,-42.18332910249584
Maracaçumé,2106326.0,-1.9842556627473777,-45.99391332872278
Marajá Do Sena,2106359.0,-4.705062229723629,-45.62852493629137
Maranhãozinho,2106375.0,-2.41244676823061,-45.946879887302025
Mata Roma,2106409.0,-3.6259491123359053,-43.22734709736578
Matinha,2106508.0,-3.0714570228610745,-45.001697564266905
Matões,2106607.0,-5.388621413972837,-43.307311051345714
Matões Do Norte,2106631.0,-3.7567153260032207,-44.47772287091087
Milagres Do Maranhão,2106672.0,-3.496415633532812,-42.79498124449475
Mirador,2106706.0,-6.454021078001341,-44.95112803311373
Miranda Do Norte,2106755.0,-3.5314750824464465,-44.526830801522735
Mirinzal,2106805.0,-2.0586715743126867,-44.8432890168717
Monção,2106904.0,-3.490666537941693,-45.32109684045683
Montes Altos,2107001.0,-5.858013369753954,-47.04152393429161
Morros,2107100.0,-2.973932943130011,-43.77687371925691
Nina Rodrigues,2107209.0,-3.437671316674384,-43.8131243771832
Nova Colinas,2107258.0,-7.144323475565368,-46.26450037468456
Nova Iorque,2107308.0,-6.750042756084215,-44.04013341126105
Nova Olinda Do Maranhão,2107357.0,-2.895956065865428,-45.95519608842708
Olho D'água Das Cunhãs,2107407.0,-4.094648061449852,-45.120352057392374
Olinda Nova Do Maranhão,2107456.0,-2.9755303559895876,-45.008921701284336
Paço Do Lumiar,2107506.0,-2.5052851668470297,-44.12409832748366
Palmeirândia,2107605.0,-2.6921853307095462,-45.023218437464735
Paraibano,2107704.0,-6.4037599109815675,-43.923874062583444
Parnarama,2107803.0,-5.638018430491312,-43.46265702175311
Passagem Franca,2107902.0,-6.152664906553018,-43.75838882305282
Pastos Bons,2108009.0,-6.632225263301744,-44.18063829043519
Paulino Neves,2108058.0,-2.85472371503037,-42.611049523364585
Paulo Ramos,2108108.0,-4.521997234542094,-45.39444517955128
Pedreiras,2108207.0,-4.618022168844563,-44.581467544836606
Pedro Do Rosário,2108256.0,-2.9889059017038417,-45.43075545889988
Penalva,2108306.0,-3.251641263584824,-45.29775681675283
Peri Mirim,2108405.0,-2.5706663485832935,-44.895744871509336
Peritoró,2108454.0,-4.419862698472247,-44.28116294565303
Pindaré-Mirim,2108504.0,-3.6931926072925867,-45.44009132274117
Pinheiro,2108603.0,-2.4982178749243857,-45.12693942843546
Pio Xii,2108702.0,-3.851525404359961,-45.09313311638011
Pirapemas,2108801.0,-3.782853130342996,-44.172630736189774
Poção De Pedras,2108900.0,-4.786916178207844,-44.91186069157278
Porto Franco,2109007.0,-6.368790715055252,-47.18005283248237
Porto Rico Do Maranhão,2109056.0,-1.883895584310865,-44.633132431975916
Presidente Dutra,2109106.0,-5.283125053211937,-44.457105090438965
Presidente Juscelino,2109205.0,-3.089692826293384,-44.07783631643399
Presidente Médici,2109239.0,-2.3189773130540736,-45.77342550552552
Presidente Sarney,2109270.0,-2.5865621313336713,-45.361568158437045
Presidente Vargas,2109304.0,-3.3811416342853384,-43.98522161461686
Primeira Cruz,2109403.0,-2.709289349577639,-43.36277116883097
Raposa,2109452.0,-2.4377950389998357,-44.0896960568245
Riachão,2109502.0,-7.598263624183945,-46.65947245834541
Ribamar Fiquene,2109551.0,-5.958375207366102,-47.31617902092684
Rosário,2109601.0,-2.9561386223387545,-44.201882578559875
Sambaíba,2109700.0,-7.432142796324691,-45.556350874782346
Santa Filomena Do Maranhão,2109759.0,-5.518942537615844,-44.618443796131146
Santa Helena,2109809.0,-2.4191920905165722,-45.37129882589389
Santa Inês,2109908.0,-3.873501540871308,-45.4366906362753
Santa Luzia,2110005.0,-4.269948931260792,-45.931631235962904
Santa Luzia Do Paruá,2110039.0,-2.5398382408254006,-45.77230990191892
Santa Quitéria Do Maranhão,2110104.0,-3.3452287437001784,-42.880056415739844
Santa Rita,2110203.0,-3.1595182473861176,-44.328715427275405
Santana Do Maranhão,2110237.0,-3.1972168279280373,-42.61467035496403
Santo Amaro Do Maranhão,2110278.0,-2.623325390249113,-43.184096003487525
Santo Antônio Dos Lopes,2110302.0,-4.8263499526942475,-44.481155210228394
São Benedito Do Rio Preto,2110401.0,-3.3753699604988143,-43.6184430321322
São Bento,2110500.0,-2.798341677348049,-44.999320862395884
São Bernardo,2110609.0,-3.3119889183479887,-42.4060479264642
São Domingos Do Azeitão,2110658.0,-6.833258469813748,-44.61737908541997
São Domingos Do Maranhão,2110708.0,-5.638225904968022,-44.336506836147635
São Félix De Balsas,2110807.0,-7.09185464867065,-44.88339722716481
São Francisco Do Brejão,2110856.0,-5.158465054057887,-47.35371227897312
São Francisco Do Maranhão,2110906.0,-6.208649607857485,-43.113872056766475
São João Batista,2111003.0,-3.006087020881782,-44.76450708837547
São João Do Carú,2111029.0,-3.510816244510792,-46.379164982765325
São João Do Paraíso,2111052.0,-6.463431745469281,-46.90047921730576
São João Do Soter,2111078.0,-5.040214996743959,-43.76662348306299
São João Dos Patos,2111102.0,-6.559503555773309,-43.637993553884385
São José De Ribamar,2111201.0,-2.57425347304315,-44.13066238175652
São José Dos Basílios,2111250.0,-5.039734439562168,-44.56841385735284
São Luís,2111300.0,-2.633666197203181,-44.280895837631896
São Luís Gonzaga Do Maranhão,2111409.0,-4.377380134740687,-44.62313703933986
São Mateus Do Maranhão,2111508.0,-3.990168321686113,-44.52757874506287
São Pedro Da Água Branca,2111532.0,-5.133574258807086,-48.368899035881604
São Pedro Dos Crentes,2111573.0,-6.819593990393339,-46.707387214966225
São Raimundo Das Mangabeiras,2111607.0,-7.014019666876745,-45.69092904025446
São Raimundo Do Doca Bezerra,2111631.0,-5.089653909685265,-45.14622599017575
São Roberto,2111672.0,-5.018655734144253,-45.034938283823614
São Vicente Ferrer,2111706.0,-2.8772746842895875,-44.94156737869856
Satubinha,2111722.0,-3.9386581153640603,-45.25922160538033
Senador Alexandre Costa,2111748.0,-5.261010130783286,-43.98466476866037
Senador La Rocque,2111763.0,-5.3885779278906805,-47.144360034075405
Serrano Do Maranhão,2111789.0,-1.873315783067754,-45.01735163229849
Sítio Novo,2111805.0,-6.228114329385263,-46.59558843730992
Sucupira Do Norte,2111904.0,-6.509906004243962,-44.33903397205592
Sucupira Do Riachão,2111953.0,-6.406740012018434,-43.48521465828173
Tasso Fragoso,2112001.0,-8.332304432267101,-45.88634422384436
Timbiras,2112100.0,-4.153078098659816,-43.813482103489555
Timon,2112209.0,-5.185656636566855,-42.98107311940958
Trizidela Do Vale,2112233.0,-4.53928525747687,-44.68180585813737
Tufilândia,2112274.0,-3.758086277982374,-45.58125414392205
Tuntum,2112308.0,-5.61055008162362,-44.73063452661005
Turiaçu,2112407.0,-1.7654311028740988,-45.463024801827395
Turilândia,2112456.0,-2.1589774106847974,-45.43758722300053
Tutóia,2112506.0,-2.923045992808849,-42.39056300846597
Urbano Santos,2112605.0,-3.260363267041858,-43.280991077260445
Vargem Grande,2112704.0,-3.7109218705264984,-43.853802455015206
Viana,2112803.0,-3.156270340670655,-45.002608732876325
Vila Nova Dos Martírios,2112852.0,-5.074803476582037,-48.0804440263186
Vitória Do Mearim,2112902.0,-3.568087245477922,-44.92216119527003
Vitorino Freire,2113009.0,-4.243939600229072,-45.31244626224164
Zé Doca,2114007.0,-3.2598882403633107,-45.912709043658666
