name_muni,code_muni,lat,lon
Adamantina,3500105.0,-21.576721317228166,-51.05680251289773
Adolfo,3500204.0,-21.288745313740854,-49.653229393202764
Aguaí,3500303.0,-22.04996239468773,-47.040311566835925
Águas Da Prata,3500402.0,-21.913688720152173,-46.69172177859804
Águas De Lindóia,3500501.0,-22.474804155267456,-46.60371723239546
Águas De Santa Bárbara,3500550.0,-22.857924901538073,-49.261094630007456
Águas De São Pedro,3500600.0,-22.59877659736439,-47.87599260000586
Agudos,3500709.0,-22.572057126287312,-49.10884451764046
Alambari,3500758.0,-23.54896775400894,-47.86907594752069
Alfredo Marcondes,3500808.0,-21.934960335557065,-51.395592529764535
Altair,3500907.0,-20.53341859932814,-49.09384272737043
Altinópolis,3501004.0,-21.01816018593719,-47.386209782847764
Alto Alegre,3501103.0,-21.612617182702312,-50.192093591455375
Alumínio,3501152.0,-23.533106998882346,-47.28124332786137
Álvares Florence,3501202.0,-20.289507852647255,-49.9202345429536
Álvares Machado,3501301.0,-22.131397325214742,-51.51476773460726
Álvaro De Carvalho,3501400.0,-22.086599863590315,-49.73400513989229
Alvinlândia,3501509.0,-22.452567127850802,-49.758579008909834
Americana,3501608.0,-22.72340311645897,-47.28908608513513
Américo Brasiliense,3501707.0,-21.722213757385163,-48.03227078856517
Américo De Campos,3501806.0,-20.28950684498904,-49.7680613079741
Amparo,3501905.0,-22.699151812470856,-46.79870489813876
Analândia,3502002.0,-22.121092161146812,-47.67795429483878
Andradina,3502101.0,-20.83572646591706,-51.32977565725099
Angatuba,3502200.0,-23.436932999562554,-48.45927050356063
Anhembi,3502309.0,-22.80014783428084,-48.1746713424583
Anhumas,3502408.0,-22.362062963862066,-51.427766783418534
Aparecida,3502507.0,-22.91414978332875,-45.23722988510817
Aparecida D'oeste,3502606.0,-20.478912913704693,-50.922027686764594
Apiaí,3502705.0,-24.421520621455763,-48.817340707638394
Araçariguama,3502754.0,-23.434477468017803,-47.07238025899746
Araçatuba,3502804.0,-21.113984622079716,-50.57446972334139
Araçoiaba Da Serra,3502903.0,-23.54390535832123,-47.65151946865573
Aramina,3503000.0,-20.14489037941101,-47.820632667184
Arandu,3503109.0,-23.177688231984185,-49.064007281579016
Arapeí,3503158.0,-22.672982033508493,-44.438548978400085
Araraquara,3503208.0,-21.791716124509122,-48.1812540012615
Araras,3503307.0,-22.346149782980955,-47.32386079704798
Arco-Íris,3503356.0,-21.766342775153408,-50.43089287961764
Arealva,3503406.0,-22.076267151939255,-48.98188993980046
Areias,3503505.0,-22.673212343158056,-44.71235378399228
Areiópolis,3503604.0,-22.63178218002948,-48.65283427069551
Ariranha,3503703.0,-21.185620459079413,-48.77924116678711
Artur Nogueira,3503802.0,-22.5612929036967,-47.132187801517574
Arujá,3503901.0,-23.385998993560698,-46.319009623908364
Aspásia,3503950.0,-20.18349417807092,-50.72804731379245
Assis,3504008.0,-22.601797422091607,-50.42073683424773
Atibaia,3504107.0,-23.123348497995917,-46.586793796713145
Auriflama,3504206.0,-20.64416338493018,-50.57994104753214
Avaí,3504305.0,-22.187258938136104,-49.31628353128559
Avanhandava,3504404.0,-21.460604712867767,-49.94733063115812
Avaré,3504503.0,-23.075375445335446,-48.89401187696236
Bady Bassitt,3504602.0,-20.931499007285876,-49.43764388786406
Balbinos,3504701.0,-21.89239624086583,-49.333019447252425
Bálsamo,3504800.0,-20.709598475521563,-49.55190299720933
Bananal,3504909.0,-22.733868300832327,-44.33445273643019
Barão De Antonina,3505005.0,-23.582933768230827,-49.571931976132795
Barbosa,3505104.0,-21.29072287949024,-49.92197196744723
Bariri,3505203.0,-22.06678572459533,-48.71887392782413
Barra Bonita,3505302.0,-22.479399637446413,-48.541668092578625
Barra Do Chapéu,3505351.0,-24.443870794714176,-49.085253842533476
Barra Do Turvo,3505401.0,-24.888786328202514,-48.42696703800199
Barretos,3505500.0,-20.514246997975153,-48.652007098735844
Barrinha,3505609.0,-21.23252524742456,-48.09509692603924
Barueri,3505708.0,-23.50528342407082,-46.87723322911175
Bastos,3505807.0,-21.950263450022053,-50.743890793574366
Batatais,3505906.0,-20.867849374241704,-47.57471094193336
Bauru,3506003.0,-22.25396591462451,-49.12609932833414
Bebedouro,3506102.0,-20.940503113317984,-48.5107468477342
Bento De Abreu,3506201.0,-21.331775092677006,-50.86195888848164
Bernardino De Campos,3506300.0,-23.03091192855408,-49.49187808721783
Bertioga,3506359.0,-23.75983655822674,-46.03009447422921
Bilac,3506409.0,-21.427800675069,-50.47927805928335
Birigui,3506508.0,-21.26178922198405,-50.35102282002108
Biritiba Mirim,3506607.0,-23.624187839553297,-46.02130004288175
Boa Esperança Do Sul,3506706.0,-21.935026891530452,-48.46362444592363
Bocaina,3506805.0,-22.10549352311824,-48.529038464839076
Bofete,3506904.0,-23.129111983188498,-48.28591261034713
Boituva,3507001.0,-23.287674005765407,-47.67491306242
Bom Jesus Dos Perdões,3507100.0,-23.17250647487355,-46.479008101965675
Bom Sucesso De Itararé,3507159.0,-24.316041890896035,-49.16471544540132
Borá,3507209.0,-22.244166141316857,-50.50211200080314
Boracéia,3507308.0,-22.17007101246875,-48.7884311272611
Borborema,3507407.0,-21.610848963278436,-49.072037263625965
Borebi,3507456.0,-22.680687767494966,-48.99231203917768
Botucatu,3507506.0,-22.863556005069665,-48.46836603701015
Bragança Paulista,3507605.0,-22.938445742676038,-46.55604811586456
Braúna,3507704.0,-21.55325634301713,-50.3394410119928
Brejo Alegre,3507753.0,-21.176662870069176,-50.20981139712459
Brodowski,3507803.0,-21.049570254891915,-47.627731705229394
Brotas,3507902.0,-22.273426891934992,-48.08122556193044
Buri,3508009.0,-23.752131207528503,-48.57528139247845
Buritama,3508108.0,-21.04911731237902,-50.20027996579634
Buritizal,3508207.0,-20.209335244681125,-47.69295829036782
Cabrália Paulista,3508306.0,-22.48943996959162,-49.37300953577903
Cabreúva,3508405.0,-23.301278941898527,-47.08027994567554
Caçapava,3508504.0,-23.103782986415638,-45.71333114033985
Cachoeira Paulista,3508603.0,-22.702361882308775,-44.99164736461123
Caconde,3508702.0,-21.53954977151344,-46.61710122213152
Cafelândia,3508801.0,-21.731285453081977,-49.54884556328551
Caiabu,3508900.0,-21.949885707007578,-51.22390699099727
Caieiras,3509007.0,-23.375908902993515,-46.74520603844346
Caiuá,3509106.0,-21.802134225918024,-51.986901043693365
Cajamar,3509205.0,-23.35146609061154,-46.872011996202836
Cajati,3509254.0,-24.772027372988237,-48.19499439000959
Cajobi,3509304.0,-20.873700150070686,-48.83879299007765
Cajuru,3509403.0,-21.276025595277055,-47.310287751549225
Campina Do Monte Alegre,3509452.0,-23.606788664406974,-48.441916234120185
Campinas,3509502.0,-22.883818705054445,-47.043873936153155
Campo Limpo Paulista,3509601.0,-23.21794950340371,-46.760090445819664
Campos Do Jordão,3509700.0,-22.701622729399684,-45.53300844748109
Campos Novos Paulista,3509809.0,-22.61092697489093,-50.01019266307003
Cananéia,3509908.0,-25.018598050506764,-48.00863533374995
Canas,3509957.0,-22.73011425729425,-45.041284597053156
Cândido Mota,3510005.0,-22.80865569932237,-50.42167634880922
Cândido Rodrigues,3510104.0,-21.342819531632372,-48.628646607165635
Canitar,3510153.0,-23.018804611471374,-49.79192857216211
Capão Bonito,3510203.0,-24.039326681881054,-48.289828314103104
Capela Do Alto,3510302.0,-23.46746403400843,-47.731034870175776
Capivari,3510401.0,-22.98074707406455,-47.47805651513931
Caraguatatuba,3510500.0,-23.63966112698685,-45.487867573998464
Carapicuíba,3510609.0,-23.549960855259386,-46.841905983568644
Cardoso,3510708.0,-20.067212564844954,-49.94752252471616
Casa Branca,3510807.0,-21.800627968611593,-47.08812797553345
Cássia Dos Coqueiros,3510906.0,-21.263258725503277,-47.14397780230575
Castilho,3511003.0,-20.897864032422923,-51.5702677036475
Catanduva,3511102.0,-21.133806302690132,-48.96369200679222
Catiguá,3511201.0,-21.062799291495658,-49.05273355520755
Cedral,3511300.0,-20.913911330286126,-49.26398310197741
Cerqueira César,3511409.0,-23.05941651834544,-49.14382002266501
Cerquilho,3511508.0,-23.187115519652778,-47.75706524938506
Cesário Lange,3511607.0,-23.216571971120622,-47.90390341730234
Charqueada,3511706.0,-22.530221898475162,-47.74626360682073
Clementina,3511904.0,-21.570261970584845,-50.46008683868536
Colina,3512001.0,-20.746170830002374,-48.588958980895036
Colômbia,3512100.0,-20.26692926229978,-48.721767540811406
Conchal,3512209.0,-22.369321462191227,-47.141163941153835
Conchas,3512308.0,-22.965693145444828,-48.047078572138965
Cordeirópolis,3512407.0,-22.479509469485027,-47.41479820369118
Coroados,3512506.0,-21.37568662394582,-50.30348575107202
Coronel Macedo,3512605.0,-23.630172511788174,-49.306753910787506
Corumbataí,3512704.0,-22.23642870179705,-47.611104937723105
Cosmópolis,3512803.0,-22.651715516460705,-47.18640452492113
Cosmorama,3512902.0,-20.442580427943923,-49.774611926025294
Cotia,3513009.0,-23.67518345637776,-46.96047197425814
Cravinhos,3513108.0,-21.339670843183967,-47.74458906898329
Cristais Paulista,3513207.0,-20.37136329949489,-47.40091505597881
Cruzália,3513306.0,-22.73807317582643,-50.76909992128299
Cruzeiro,3513405.0,-22.55141131801099,-45.00632144504618
Cubatão,3513504.0,-23.865885709041667,-46.408259452210515
Cunha,3513603.0,-23.05304065296476,-44.94218309685677
Descalvado,3513702.0,-21.881291314175854,-47.654623709847435
Diadema,3513801.0,-23.697162223893812,-46.611370685137146
Dirce Reis,3513850.0,-20.44848416094088,-50.62815986899386
Divinolândia,3513900.0,-21.661746591732314,-46.69739775249884
Dobrada,3514007.0,-21.516152730050965,-48.357413852495895
Dois Córregos,3514106.0,-22.39616431896311,-48.340489438947316
Dolcinópolis,3514205.0,-20.117290725698933,-50.528317883773106
Dourado,3514304.0,-22.117218380250005,-48.333393658823795
Dracena,3514403.0,-21.556725407623823,-51.58408370914601
Duartina,3514502.0,-22.393332446373734,-49.413346518346636
Dumont,3514601.0,-21.24709701315105,-47.97975410952412
Echaporã,3514700.0,-22.448393863081815,-50.2006904319963
Eldorado,3514809.0,-24.495269219013505,-48.23366333529487
Elias Fausto,3514908.0,-23.070653873891576,-47.370687562040516
Elisiário,3514924.0,-21.161328203592895,-49.09208367860293
Embaúba,3514957.0,-20.952907521304624,-48.84759612011809
Embu Das Artes,3515004.0,-23.65135859162295,-46.8515226789929
Embu-Guaçu,3515103.0,-23.85439521549171,-46.83070026622972
Emilianópolis,3515129.0,-21.800963066250535,-51.472140441748955
Engenheiro Coelho,3515152.0,-22.487088451735712,-47.17481952238871
Espírito Santo Do Pinhal,3515186.0,-22.192455183520163,-46.79327130899519
Espírito Santo Do Turvo,3515194.0,-22.67086584935278,-49.43294366780842
Estrela D'oeste,3515202.0,-20.26577257489173,-50.41152216504515
Estrela Do Norte,3515301.0,-22.48565685222522,-51.66906635533974
Euclides Da Cunha Paulista,3515350.0,-22.51898043952337,-52.58868506371121
Fartura,3515400.0,-23.39022446475139,-49.519645396688496
Fernandópolis,3515509.0,-20.27186033312102,-50.282964352621526
Fernando Prestes,3515608.0,-21.310328948472648,-48.69571404679049
Fernão,3515657.0,-22.365855873942976,-49.54239799102107
Ferraz De Vasconcelos,3515707.0,-23.560954595285445,-46.37396381757485
Flora Rica,3515806.0,-21.698468173523267,-51.37421487934825
Floreal,3515905.0,-20.669680996692648,-50.154923347696936
Flórida Paulista,3516002.0,-21.540141740817777,-51.17071181201705
Florínea,3516101.0,-22.881290924857254,-50.69538428444959
Franca,3516200.0,-20.555313149290193,-47.38106823215269
Francisco Morato,3516309.0,-23.273717866232044,-46.72363707251495
Franco Da Rocha,3516408.0,-23.314184445095318,-46.735745743725474
Gabriel Monteiro,3516507.0,-21.499643354237033,-50.56480385170934
Gália,3516606.0,-22.320539548163197,-49.57780616833552
Garça,3516705.0,-22.231051055727644,-49.68965918879886
Gastão Vidigal,3516804.0,-20.804284586727213,-50.202634099586334
Gavião Peixoto,3516853.0,-21.791700568347007,-48.44798288994172
General Salgado,3516903.0,-20.638288593560954,-50.41579826590007
Getulina,3517000.0,-21.783246716072934,-50.02790700939983
Glicério,3517109.0,-21.340381999681757,-50.19894371531414
Guaiçara,3517208.0,-21.569628543068468,-49.762743045751314
Guaimbê,3517307.0,-21.87859204167774,-49.86074481821933
Guaíra,3517406.0,-20.314161965723706,-48.364104174622796
Guapiaçu,3517505.0,-20.742862904022697,-49.189915018315034
Guapiara,3517604.0,-24.212565556876,-48.55579825954388
Guará,3517703.0,-20.482559975251785,-47.775204234118874
Guaraçaí,3517802.0,-21.086596738454812,-51.2795379529818
Guaraci,3517901.0,-20.37493119254853,-49.00277159620207
Guarani D'oeste,3518008.0,-20.066890537816708,-50.344696888387936
Guarantã,3518107.0,-21.916170137104633,-49.58842267654135
Guararapes,3518206.0,-21.285522207457806,-50.69517500498772
Guararema,3518305.0,-23.427625536982458,-46.058547371991885
Guaratinguetá,3518404.0,-22.793630162430688,-45.23278413691866
Guareí,3518503.0,-23.370548994162103,-48.21911402269916
Guariba,3518602.0,-21.395919545349507,-48.226446800991326
Guarujá,3518701.0,-23.951260252331828,-46.235164664947234
Guarulhos,3518800.0,-23.402732423311893,-46.45482587234988
Guatapará,3518859.0,-21.453380714627126,-47.979905184890754
Guzolândia,3518909.0,-20.628552002093237,-50.71360321192704
Herculândia,3519006.0,-21.962422286818388,-50.37323146058679
Holambra,3519055.0,-22.630339329919796,-47.065055778395774
Hortolândia,3519071.0,-22.87847665537578,-47.207776732692096
Iacanga,3519105.0,-21.890987284042442,-49.039636789777305
Iacri,3519204.0,-21.799883289492776,-50.61947128166437
Iaras,3519253.0,-22.819263709161028,-49.10679594705217
Ibaté,3519303.0,-21.950927618975907,-48.02723096566663
Ibirá,3519402.0,-21.074771314525297,-49.220388171283204
Ibirarema,3519501.0,-22.81328918884238,-50.07688356742739
Ibitinga,3519600.0,-21.792952483423807,-48.847862425801154
Ibiúna,3519709.0,-23.80253937094696,-47.215291126874625
Icém,3519808.0,-20.367283260860177,-49.18531274355167
Iepê,3519907.0,-22.648656727502658,-51.057159574676724
Igaraçu Do Tietê,3520004.0,-22.541722687302624,-48.57452775342889
Igarapava,3520103.0,-20.063686327108375,-47.68242829238081
Igaratá,3520202.0,-23.134881906608644,-46.15036292717786
Iguape,3520301.0,-24.54965544602579,-47.47442139871754
Ilhabela,3520400.0,-23.84854246748241,-45.3232700797303
Ilha Comprida,3520426.0,-24.85934606058824,-47.715704261084205
Ilha Solteira,3520442.0,-20.431494809623004,-51.25907035495086
Indaiatuba,3520509.0,-23.10607193250294,-47.20253065258203
Indiana,3520608.0,-22.133197648319573,-51.2625721530837
Indiaporã,3520707.0,-19.947970501422304,-50.263657556667525
Inúbia Paulista,3520806.0,-21.73908245734686,-50.9574603744897
Ipaussu,3520905.0,-23.065035065184514,-49.60809440698344
Iperó,3521002.0,-23.404434051087588,-47.629142027599315
Ipeúna,3521101.0,-22.423939397374685,-47.71605860043801
Ipiguá,3521150.0,-20.648035648664855,-49.40353393796457
Iporanga,3521200.0,-24.512840296272962,-48.546377523417945
Ipuã,3521309.0,-20.417539433246088,-48.06649732155934
Iracemápolis,3521408.0,-22.593741320524185,-47.524223070624146
Irapuã,3521507.0,-21.26773658390299,-49.39742056946205
Irapuru,3521606.0,-21.484359635642626,-51.34649800237585
Itaberá,3521705.0,-23.87144862554397,-49.14243959600876
Itaí,3521804.0,-23.47157961166777,-49.054161864924616
Itajobi,3521903.0,-21.35559909806247,-49.0536885616403
Itaju,3522000.0,-21.95167765988961,-48.79399913840041
Itanhaém,3522109.0,-24.09229694237206,-46.834560846384484
Itaoca,3522158.0,-24.61782821895567,-48.83896527824299
Itapecerica Da Serra,3522208.0,-23.737259044418074,-46.858888220307406
Itapetininga,3522307.0,-23.64559764209723,-48.12330288830504
Itapeva,3522406.0,-23.914354890201505,-48.87171410648036
Itapevi,3522505.0,-23.550943551619444,-46.96770298220771
Itapira,3522604.0,-22.431970827914828,-46.77209180505444
Itapirapuã Paulista,3522653.0,-24.569088037523834,-49.22297682206388
Itápolis,3522703.0,-21.548159678744224,-48.81544028021347
Itaporanga,3522802.0,-23.67297132227057,-49.45849702965682
Itapuí,3522901.0,-22.25085952328894,-48.701402078893345
Itapura,3523008.0,-20.595015203989593,-51.440481745627864
Itaquaquecetuba,3523107.0,-23.46151039983779,-46.33395011055938
Itararé,3523206.0,-24.080660397648757,-49.30350659453095
Itariri,3523305.0,-24.292648169740374,-47.12805759249165
Itatiba,3523404.0,-23.00668384157771,-46.81434340369401
Itatinga,3523503.0,-23.153710781837024,-48.629379768515996
Itirapina,3523602.0,-22.29463940556736,-47.83403435288361
Itirapuã,3523701.0,-20.657599252864493,-47.1692634995673
Itobi,3523800.0,-21.74904501127575,-46.92197575992667
Itu,3523909.0,-23.307176862694803,-47.284537106950864
Itupeva,3524006.0,-23.146598067825746,-47.068475564397964
Ituverava,3524105.0,-20.329536563571867,-47.809539208517265
Jaborandi,3524204.0,-20.650048586020873,-48.41595618776845
Jaboticabal,3524303.0,-21.218405436697427,-48.287928390361
Jacareí,3524402.0,-23.29892969856591,-45.99056346692794
Jaci,3524501.0,-20.945218012299986,-49.581145718147916
Jacupiranga,3524600.0,-24.777467829917946,-48.053902378184226
Jaguariúna,3524709.0,-22.692000452933627,-47.012724876058826
Jales,3524808.0,-20.285846434843805,-50.55412309584505
Jambeiro,3524907.0,-23.279310715203703,-45.71063831075361
Jandira,3525003.0,-23.544062724901305,-46.89973238971135
Jardinópolis,3525102.0,-20.991958475363795,-47.826070923200994
Jarinu,3525201.0,-23.11202119068815,-46.72135824837273
Jaú,3525300.0,-22.296136871374703,-48.55595776015481
Jeriquara,3525409.0,-20.34016983203667,-47.574110795867554
Joanópolis,3525508.0,-22.93883046335906,-46.20922015510061
João Ramalho,3525607.0,-22.27811829188689,-50.79917586662374
José Bonifácio,3525706.0,-21.08950912416695,-49.77942961157744
Júlio Mesquita,3525805.0,-21.972953277586072,-49.793291594498584
Jumirim,3525854.0,-23.099608566384926,-47.78811156469113
Jundiaí,3525904.0,-23.194661267737473,-46.913030127967446
Junqueirópolis,3526001.0,-21.44910704161125,-51.4350317508362
Juquiá,3526100.0,-24.21369860464966,-47.65228515122471
Juquitiba,3526209.0,-23.955218690689396,-47.024636187026886
Lagoinha,3526308.0,-23.08580990452539,-45.206807342627826
Laranjal Paulista,3526407.0,-23.012297729691447,-47.86565843664083
Lavínia,3526506.0,-21.150962347384684,-51.03272522892345
Lavrinhas,3526605.0,-22.520336223309588,-44.888810387755456
Leme,3526704.0,-22.1721380254918,-47.33759013771514
Lençóis Paulista,3526803.0,-22.676190673000463,-48.82500663559454
Limeira,3526902.0,-22.598492341543047,-47.363641843380954
Lindóia,3527009.0,-22.51343197659849,-46.65485938286547
Lins,3527108.0,-21.64984433505119,-49.68289723619017
Lorena,3527207.0,-22.794006770196752,-45.06002289574957
Lourdes,3527256.0,-20.949182135015455,-50.23405926303188
Louveira,3527306.0,-23.08424082525414,-46.937163743049126
Lucélia,3527405.0,-21.644322221671963,-50.99169370111131
Lucianópolis,3527504.0,-22.473394267143348,-49.55029701895029
Luís Antônio,3527603.0,-21.552770198348806,-47.78183501722759
Luiziânia,3527702.0,-21.672632879876854,-50.350866643600234
Lupércio,3527801.0,-22.42716294876392,-49.816975054763574
Lutécia,3527900.0,-22.32539471071075,-50.38548451026015
Macatuba,3528007.0,-22.487197244365184,-48.719368101121475
Macaubal,3528106.0,-20.837917563055335,-49.97498161709864
Macedônia,3528205.0,-20.098145086091996,-50.18153783505438
Magda,3528304.0,-20.596589756464123,-50.23009400576994
Mairinque,3528403.0,-23.50799792208008,-47.22930810721172
Mairiporã,3528502.0,-23.31728904766229,-46.56126265118302
Manduri,3528601.0,-23.047087527132547,-49.303606007432016
Marabá Paulista,3528700.0,-22.127787746873018,-52.056604574082044
Maracaí,3528809.0,-22.652268395114675,-50.74535700485119
Marapoama,3528858.0,-21.255528327573916,-49.137787924628356
Mariápolis,3528908.0,-21.779178916190325,-51.17179964856068
Marília,3529005.0,-22.177994060577827,-49.98310735601627
Marinópolis,3529104.0,-20.479900710432602,-50.83232293794528
Martinópolis,3529203.0,-22.172722630312386,-51.12346619449483
Matão,3529302.0,-21.61014873914599,-48.430179791368595
Mauá,3529401.0,-23.666065170591896,-46.44626692244329
Mendonça,3529500.0,-21.194070984674497,-49.570288455022514
Meridiano,3529609.0,-20.398236723707804,-50.18662059625911
Mesópolis,3529658.0,-19.957499798450684,-50.615437217741444
Miguelópolis,3529708.0,-20.184737571439637,-48.105404579242276
Mineiros Do Tietê,3529807.0,-22.46333735634909,-48.433228311642175
Miracatu,3529906.0,-24.195172426802127,-47.394708345072296
Mira Estrela,3530003.0,-19.95183758160827,-50.124289044429894
Mirandópolis,3530102.0,-21.08130992370723,-51.1306583144438
Mirante Do Paranapanema,3530201.0,-22.349325295700165,-51.99800147414957
Mirassol,3530300.0,-20.827562528041998,-49.50425360694703
Mirassolândia,3530409.0,-20.594954056960823,-49.48696348375688
Mococa,3530508.0,-21.449608112476653,-47.03286045590083
Mogi Das Cruzes,3530607.0,-23.569700982685713,-46.186075950468364
Mogi Guaçu,3530706.0,-22.232135033602074,-47.0289610223563
Mogi Mirim,3530805.0,-22.45133066856388,-46.98839906162536
Mombuca,3530904.0,-22.942713003718815,-47.60207856417021
Monções,3531001.0,-20.86309667401689,-50.07942022519702
Mongaguá,3531100.0,-24.07019784560825,-46.667836414976506
Monte Alegre Do Sul,3531209.0,-22.704308227696725,-46.66766631745214
Monte Alto,3531308.0,-21.259327517004653,-48.53303216928463
Monte Aprazível,3531407.0,-20.737660914804056,-49.76584860700921
Monte Azul Paulista,3531506.0,-20.908887027498885,-48.68128306589011
Monte Castelo,3531605.0,-21.254921741513765,-51.571359078245564
Monteiro Lobato,3531704.0,-22.936526563717784,-45.804278169556234
Monte Mor,3531803.0,-22.953240571549845,-47.30740115106063
Morro Agudo,3531902.0,-20.688899192828803,-48.15327628784254
Morungaba,3532009.0,-22.893870986333408,-46.78265416579214
Motuca,3532058.0,-21.513776657719465,-48.17035226361217
Murutinga Do Sul,3532108.0,-20.996804813620333,-51.30141247782303
Nantes,3532157.0,-22.596909610456105,-51.20091445033201
Narandiba,3532207.0,-22.56379700680681,-51.52168699318564
Natividade Da Serra,3532306.0,-23.41518792631383,-45.38152543724248
Nazaré Paulista,3532405.0,-23.191462240020236,-46.3664813304466
Neves Paulista,3532504.0,-20.8705438614661,-49.646530007748474
Nhandeara,3532603.0,-20.673044421236163,-50.046854833002
Nipoã,3532702.0,-20.891713942728163,-49.77828240360444
Nova Aliança,3532801.0,-21.062639014032587,-49.51591731561766
Nova Campina,3532827.0,-24.19060233613075,-48.97296803962524
Nova Canaã Paulista,3532843.0,-20.372028761088757,-50.910541480525005
Nova Castilho,3532868.0,-20.777886450928722,-50.34576037442413
Nova Europa,3532900.0,-21.774315221717032,-48.549666378071926
Nova Granada,3533007.0,-20.476066105300994,-49.33113626406273
Nova Guataporanga,3533106.0,-21.32234704091769,-51.64550343195732
Nova Independência,3533205.0,-21.135374889991056,-51.50513456298434
Novais,3533254.0,-20.988655025678842,-48.91801506987993
Nova Luzitânia,3533304.0,-20.86867224762032,-50.249233331719886
Nova Odessa,3533403.0,-22.78412809531288,-47.285131127501515
Novo Horizonte,3533502.0,-21.469264492719073,-49.28379751655582
Nuporanga,3533601.0,-20.7047373344198,-47.729072290544856
Ocauçu,3533700.0,-22.438142492951545,-49.937938911160494
Óleo,3533809.0,-22.953703448231998,-49.38307378510494
Olímpia,3533908.0,-20.70534627999511,-48.959588186153994
Onda Verde,3534005.0,-20.617406955485087,-49.24369838186403
Oriente,3534104.0,-22.142072774256587,-50.09381208250755
Orindiúva,3534203.0,-20.20163691765119,-49.35547457679775
Orlândia,3534302.0,-20.69787186989397,-47.905845375860046
Osasco,3534401.0,-23.52866382753932,-46.789220185402186
Oscar Bressane,3534500.0,-22.295353246852738,-50.257289801629064
Osvaldo Cruz,3534609.0,-21.732792129658776,-50.87392853427602
Ourinhos,3534708.0,-22.952721172156657,-49.85245126120329
Ouroeste,3534757.0,-19.922456802798642,-50.401957373159746
Ouro Verde,3534807.0,-21.5104266394332,-51.73792351100612
Pacaembu,3534906.0,-21.49558888603245,-51.27417146358729
Palestina,3535002.0,-20.321227741794104,-49.497574304886264
Palmares Paulista,3535101.0,-21.10455219964225,-48.826747103766216
Palmeira D'oeste,3535200.0,-20.438890149819173,-50.74873873520838
Palmital,3535309.0,-22.828791371257118,-50.22084071765419
Panorama,3535408.0,-21.46330796415681,-51.85806626601019
Paraguaçu Paulista,3535507.0,-22.459107535615523,-50.626612918703955
Paraibuna,3535606.0,-23.478437719277217,-45.64185448706719
Paraíso,3535705.0,-21.019669704966716,-48.76458526519033
Paranapanema,3535804.0,-23.43862389908068,-48.79518634335349
Paranapuã,3535903.0,-20.06369841763126,-50.59395284382599
Parapuã,3536000.0,-21.853048319735798,-50.82176259661594
Pardinho,3536109.0,-23.10215679772534,-48.40181814222588
Pariquera-Açu,3536208.0,-24.678328899227704,-47.850082334425025
Parisi,3536257.0,-20.271626580543774,-50.03734549335311
Patrocínio Paulista,3536307.0,-20.70434892441794,-47.28945408378392
Paulicéia,3536406.0,-21.19845107580059,-51.79076186432447
Paulínia,3536505.0,-22.748431817247152,-47.14509958412707
Paulistânia,3536570.0,-22.568392554950634,-49.30553581474272
Paulo De Faria,3536604.0,-20.066682428449468,-49.4633869406602
Pederneiras,3536703.0,-22.301400694890916,-48.86106621901625
Pedra Bela,3536802.0,-22.77579751103865,-46.441771266178236
Pedranópolis,3536901.0,-20.210181899725324,-50.10696619422816
Pedregulho,3537008.0,-20.20557669449593,-47.43908110317017
Pedreira,3537107.0,-22.754714272589666,-46.88848456119341
Pedrinhas Paulista,3537156.0,-22.81686212948818,-50.80246786202435
Pedro De Toledo,3537206.0,-24.163828720230576,-47.16356301753267
Penápolis,3537305.0,-21.40549653698859,-50.095693848139106
Pereira Barreto,3537404.0,-20.677881467380494,-51.10640876227789
Pereiras,3537503.0,-23.120490243477462,-47.97886206996127
Peruíbe,3537602.0,-24.279442973992676,-47.01296448980235
Piacatu,3537701.0,-21.571418290126886,-50.643514308650424
Piedade,3537800.0,-23.787013974639596,-47.438116079151605
Pilar Do Sul,3537909.0,-23.856473133895815,-47.72809636759392
Pindamonhangaba,3538006.0,-22.880063179930897,-45.459235046901426
Pindorama,3538105.0,-21.209751385062063,-48.911593762089794
Pinhalzinho,3538204.0,-22.778898173698323,-46.573431163015016
Piquerobi,3538303.0,-21.852760592520603,-51.731609509411946
Piquete,3538501.0,-22.590311969209353,-45.173889378704885
Piracaia,3538600.0,-23.046918512394875,-46.30234398102682
Piracicaba,3538709.0,-22.726497799927873,-47.78402075136375
Piraju,3538808.0,-23.186929731012924,-49.366126773755994
Pirajuí,3538907.0,-21.957709137368635,-49.41366813831128
Pirangi,3539004.0,-21.09393205886234,-48.669309831726494
Pirapora Do Bom Jesus,3539103.0,-23.378279391411553,-46.984888839335476
Pirapozinho,3539202.0,-22.479560589713465,-51.62000153165582
Pirassununga,3539301.0,-21.99599621757339,-47.38999863302033
Piratininga,3539400.0,-22.424966442660235,-49.191767951421184
Pitangueiras,3539509.0,-21.006191788652952,-48.24944096607632
Planalto,3539608.0,-21.001289110448294,-49.93595413450927
Platina,3539707.0,-22.625306415421775,-50.21273060863678
Poá,3539806.0,-23.53038999079638,-46.3467224257102
Poloni,3539905.0,-20.752338388021016,-49.81993463298194
Pompéia,3540002.0,-22.029229871487082,-50.187738235575644
Pongaí,3540101.0,-21.73019424593813,-49.35892538007831
Pontal,3540200.0,-20.984597901754864,-48.06446881955023
Pontalinda,3540259.0,-20.450697761720665,-50.52504875397749
Pontes Gestal,3540309.0,-20.174865630168668,-49.75731768132547
Populina,3540408.0,-19.907374187798627,-50.517340772477425
Porangaba,3540507.0,-23.173889738810633,-48.11738733880496
Porto Feliz,3540606.0,-23.23039504501326,-47.516900619786036
Porto Ferreira,3540705.0,-21.84265584044513,-47.44731937405059
Potim,3540754.0,-22.8251683507267,-45.30332062931262
Potirendaba,3540804.0,-21.075524323172235,-49.391713575945346
Pracinha,3540853.0,-21.837654671888604,-51.07530945604896
Pradópolis,3540903.0,-21.344445601604942,-48.08602162454244
Praia Grande,3541000.0,-24.015551315847475,-46.52245402860617
Pratânia,3541059.0,-22.818561854404088,-48.69683012969038
Presidente Alves,3541109.0,-22.122215013792683,-49.431879905363864
Presidente Bernardes,3541208.0,-22.107541433298557,-51.62036917597635
Presidente Epitácio,3541307.0,-21.91105728804265,-52.1749882132698
Presidente Prudente,3541406.0,-21.993390112899647,-51.343174033685656
Presidente Venceslau,3541505.0,-21.793165839097263,-51.838393439440885
Promissão,3541604.0,-21.524745826288786,-49.87053852329544
Quadra,3541653.0,-23.30102302333538,-48.03857798381493
Quatá,3541703.0,-22.205983701281177,-50.645305470385644
Queiroz,3541802.0,-21.80059386800007,-50.245238306997145
Queluz,3541901.0,-22.504332854858397,-44.78529654971975
Quintana,3542008.0,-22.10020995875808,-50.369263203710865
Rafard,3542107.0,-23.045171955117908,-47.58367828812646
Rancharia,3542206.0,-22.28313346150074,-50.928314312501975
Redenção Da Serra,3542305.0,-23.253729822926598,-45.52618456025782
Regente Feijó,3542404.0,-22.25258453095383,-51.29405474804668
Reginópolis,3542503.0,-21.883414010437345,-49.18050163170883
Registro,3542602.0,-24.50406999885527,-47.82079054072201
Restinga,3542701.0,-20.648184925696718,-47.50593462903697
Ribeira,3542800.0,-24.60736488437154,-49.03660957456632
Ribeirão Bonito,3542909.0,-22.060169731463695,-48.185291623945126
Ribeirão Branco,3543006.0,-24.256195665143174,-48.77812135277599
Ribeirão Corrente,3543105.0,-20.44899283764145,-47.5732820647169
Ribeirão Do Sul,3543204.0,-22.751611102604,-49.92260620831435
Ribeirão Dos Índios,3543238.0,-21.78427324656097,-51.58334980659691
Ribeirão Grande,3543253.0,-24.18871243469368,-48.35875832421589
Ribeirão Pires,3543303.0,-23.70112658945931,-46.40286554160119
Ribeirão Preto,3543402.0,-21.210876156559912,-47.82129910176076
Riversul,3543501.0,-23.846883715509556,-49.4478252008377
Rifaina,3543600.0,-20.060803740727238,-47.44090558841843
Rincão,3543709.0,-21.593881121136434,-48.03216115075061
Rinópolis,3543808.0,-21.681189882704352,-50.71747991349946
Rio Claro,3543907.0,-22.373920260025262,-47.57993976548986
Rio Das Pedras,3544004.0,-22.85036820024059,-47.598460285905425
Rio Grande Da Serra,3544103.0,-23.737837828332452,-46.379457830441474
Riolândia,3544202.0,-20.02354230213591,-49.70909919580525
Rosana,3544251.0,-22.489222507040985,-52.83696460634017
Roseira,3544301.0,-22.93309168898371,-45.30244449087433
Rubiácea,3544400.0,-21.3609636755133,-50.78590913408505
Rubinéia,3544509.0,-20.249965431742893,-51.0183759532935
Sabino,3544608.0,-21.470953635888062,-49.57554067811314
Sagres,3544707.0,-21.867788694357813,-50.99032934360281
Sales,3544806.0,-21.347304092893005,-49.50276619959481
Sales Oliveira,3544905.0,-20.83146921946517,-47.85455755199049
Salesópolis,3545001.0,-23.580246942240787,-45.842599655618905
Salmourão,3545100.0,-21.58811723550218,-50.87626498805719
Saltinho,3545159.0,-22.871235481398713,-47.731784459319314
Salto,3545209.0,-23.180450767989786,-47.30268571775138
Salto De Pirapora,3545308.0,-23.65281035032518,-47.58066156006251
Salto Grande,3545407.0,-22.870863683929166,-49.96084111776821
Sandovalina,3545506.0,-22.477912376278393,-51.84220063955776
Santa Adélia,3545605.0,-21.31784186896879,-48.819023499356355
Santa Albertina,3545704.0,-20.014159091223686,-50.72765498816483
Santa Bárbara D'oeste,3545803.0,-22.80064406725986,-47.428029030074654
Santa Branca,3546009.0,-23.426424564035102,-45.86328452466917
Santa Clara D'oeste,3546108.0,-20.066899983306154,-50.90839610380121
Santa Cruz Da Conceição,3546207.0,-22.121391345958372,-47.4856109719847
Santa Cruz Da Esperança,3546256.0,-21.274874250724388,-47.43963469887429
Santa Cruz Das Palmeiras,3546306.0,-21.85560883688617,-47.25014103460617
Santa Cruz Do Rio Pardo,3546405.0,-22.8094456705277,-49.569032637688686
Santa Ernestina,3546504.0,-21.452551461527325,-48.366763099827985
Santa Fé Do Sul,3546603.0,-20.2419873740446,-50.95019161062385
Santa Gertrudes,3546702.0,-22.475137382834593,-47.521288436492036
Santa Isabel,3546801.0,-23.28895784074428,-46.24230471482218
Santa Lúcia,3546900.0,-21.670705549090215,-48.05744866139853
Santa Maria Da Serra,3547007.0,-22.564454606395675,-48.15425315549066
Santa Mercedes,3547106.0,-21.316778570886083,-51.73714560351927
Santana Da Ponte Pensa,3547205.0,-20.260814961324318,-50.7971153735043
Santana De Parnaíba,3547304.0,-23.449414964531123,-46.916790524448594
Santa Rita D'oeste,3547403.0,-20.09723475930055,-50.81268721435192
Santa Rita Do Passa Quatro,3547502.0,-21.682521510651604,-47.508004958753375
Santa Rosa De Viterbo,3547601.0,-21.503827153020165,-47.36626518810865
Santa Salete,3547650.0,-20.258696643530783,-50.72005952550544
Santo Anastácio,3547700.0,-22.03768408890699,-51.722502503050045
Santo André,3547809.0,-23.727967858180385,-46.44152620823503
Santo Antônio Da Alegria,3547908.0,-21.092439398847656,-47.19580849860546
Santo Antônio De Posse,3548005.0,-22.603290374610708,-46.949900310354735
Santo Antônio Do Aracanguá,3548054.0,-20.87303482175261,-50.55427719507541
Santo Antônio Do Jardim,3548104.0,-22.130406465005915,-46.68329095002204
Santo Antônio Do Pinhal,3548203.0,-22.8318240883283,-45.69799241409928
Santo Expedito,3548302.0,-21.82481593790305,-51.370177607776704
Santópolis Do Aguapeí,3548401.0,-21.660186888777734,-50.517976945064355
Santos,3548500.0,-23.869096277796555,-46.291604375303834
São Bento Do Sapucaí,3548609.0,-22.681507631986268,-45.68681403765605
São Bernardo Do Campo,3548708.0,-23.81301700475898,-46.55085504245068
São Caetano Do Sul,3548807.0,-23.626229363545978,-46.56612142263312
São Carlos,3548906.0,-21.919201521652425,-47.8672198670211
São Francisco,3549003.0,-20.365812203963014,-50.675836791630076
São João Da Boa Vista,3549102.0,-21.978029829479052,-46.802119644300376
São João Das Duas Pontes,3549201.0,-20.408331239186307,-50.38341275317209
São João De Iracema,3549250.0,-20.5207476894845,-50.35628053367843
São João Do Pau D'alho,3549300.0,-21.223465426884452,-51.67308721633155
São Joaquim Da Barra,3549409.0,-20.550621844765192,-47.93859486904105
São José Da Bela Vista,3549508.0,-20.587580960330133,-47.62718579339598
São José Do Barreiro,3549607.0,-22.748877456045886,-44.58721540477169
São José Do Rio Pardo,3549706.0,-21.603728456138597,-46.879489345260225
São José Do Rio Preto,3549805.0,-20.797387944924896,-49.35805942760442
São José Dos Campos,3549904.0,-23.090725889044652,-45.92853104788606
São Lourenço Da Serra,3549953.0,-23.852432652924932,-46.93633788858626
São Luiz Do Paraitinga,3550001.0,-23.240178146372052,-45.25378383182475
São Manuel,3550100.0,-22.682315922172556,-48.54048565375384
São Miguel Arcanjo,3550209.0,-23.91401470075276,-47.993411263124024
São Paulo,3550308.0,-23.650358664542967,-46.64819667722327
São Pedro,3550407.0,-22.558149868815413,-47.92468451867428
São Pedro Do Turvo,3550506.0,-22.679057939284633,-49.772261419800586
São Roque,3550605.0,-23.549022142662597,-47.109551132030994
São Sebastião,3550704.0,-23.75439848844252,-45.606733358303885
São Sebastião Da Grama,3550803.0,-21.753991656228692,-46.753094613763935
São Simão,3550902.0,-21.46145600472228,-47.56835179761826
São Vicente,3551009.0,-23.959164245620688,-46.48798437408895
Sarapuí,3551108.0,-23.66438297585692,-47.785760287206216
Sarutaiá,3551207.0,-23.257645712781304,-49.48163931243511
Sebastianópolis Do Sul,3551306.0,-20.629255980864286,-49.91584124986089
Serra Azul,3551405.0,-21.316073960921553,-47.54972418615397
Serrana,3551504.0,-21.21685881435537,-47.6124252857655
Serra Negra,3551603.0,-22.589090611388354,-46.68730474728743
Sertãozinho,3551702.0,-21.122919970555095,-48.00903759564189
Sete Barras,3551801.0,-24.274069880497393,-47.93415242945748
Severínia,3551900.0,-20.793177038445595,-48.79357232868985
Silveiras,3552007.0,-22.734740801442857,-44.84092652450171
Socorro,3552106.0,-22.611231384017525,-46.524399966510835
Sorocaba,3552205.0,-23.464623576283643,-47.44667525148034
Sud Mennucci,3552304.0,-20.667646890031968,-50.90087373718731
Sumaré,3552403.0,-22.84185474083932,-47.262998193860284
Suzano,3552502.0,-23.608426203847255,-46.31046476509319
Suzanápolis,3552551.0,-20.472856138390426,-51.0756085253476
Tabapuã,3552601.0,-20.931837386903055,-49.028994305869574
Tabatinga,3552700.0,-21.712503604307585,-48.629122625137505
Taboão Da Serra,3552809.0,-23.62050977083271,-46.786214080263356
Taciba,3552908.0,-22.50499066000959,-51.34232212003059
Taguaí,3553005.0,-23.4744699073003,-49.39743134554018
Taiaçu,3553104.0,-21.132217904322232,-48.53024278433196
Taiúva,3553203.0,-21.132646288984645,-48.4282309066605
Tambaú,3553302.0,-21.601831881226257,-47.239059364001484
Tanabi,3553401.0,-20.531286678913702,-49.64652495755658
Tapiraí,3553500.0,-24.0087445998726,-47.619494236406794
Tapiratiba,3553609.0,-21.450738741737982,-46.74182120766277
Taquaral,3553658.0,-21.069266974894013,-48.399355116175286
Taquaritinga,3553708.0,-21.425587673824143,-48.53792075993765
Taquarituba,3553807.0,-23.530243620236224,-49.23460475249504
Taquarivaí,3553856.0,-23.943373397010205,-48.687932716161995
Tarabai,3553906.0,-22.35803658599049,-51.625837136673084
Tarumã,3553955.0,-22.76353547574227,-50.601450020160904
Tatuí,3554003.0,-23.36213088505973,-47.86961653761087
Taubaté,3554102.0,-23.087183134890807,-45.502431111878636
Tejupá,3554201.0,-23.342537689402526,-49.30661939127379
Teodoro Sampaio,3554300.0,-22.41681131213413,-52.37401638890941
Terra Roxa,3554409.0,-20.778756178395287,-48.34572551545967
Tietê,3554508.0,-23.0495681495959,-47.707608471023846
Timburi,3554607.0,-23.195852506076,-49.610360829335335
Torre De Pedra,3554656.0,-23.250111646851355,-48.21269393691771
Torrinha,3554706.0,-22.444645266410216,-48.16444953857954
Trabiju,3554755.0,-22.032324002268826,-48.345261943834906
Tremembé,3554805.0,-22.940889545634963,-45.60420221842565
Três Fronteiras,3554904.0,-20.27369257229069,-50.86959867646089
Tuiuti,3554953.0,-22.830339037490248,-46.6876291405419
Tupã,3555000.0,-21.94734174241523,-50.53467208909373
Tupi Paulista,3555109.0,-21.390431511342626,-51.587221460295915
Turiúba,3555208.0,-20.940525463090893,-50.11117698496754
Turmalina,3555307.0,-20.083587834351484,-50.45672760827906
Ubarana,3555356.0,-21.219794233911173,-49.74822031673683
Ubatuba,3555406.0,-23.381349685095994,-45.02431011855854
Ubirajara,3555505.0,-22.544288253624334,-49.665939693948964
Uchoa,3555604.0,-20.93699793868037,-49.157776251883575
União Paulista,3555703.0,-20.890550028017948,-49.88727872455844
Urânia,3555802.0,-20.2088347149824,-50.6524432796071
Uru,3555901.0,-21.765962277972093,-49.29631653430144
Urupês,3556008.0,-21.205237078850214,-49.26517198727427
Valentim Gentil,3556107.0,-20.420617422203886,-50.1017789157879
Valinhos,3556206.0,-22.975094127738966,-46.98136718710031
Valparaíso,3556305.0,-21.203314409088346,-50.923940116595446
Vargem,3556354.0,-22.890163010645924,-46.41459105479879
Vargem Grande Do Sul,3556404.0,-21.86073005453698,-46.89899991733738
Vargem Grande Paulista,3556453.0,-23.620923040512153,-47.014724913609584
Várzea Paulista,3556503.0,-23.219255876090227,-46.82498567167408
Vera Cruz,3556602.0,-22.234100472429358,-49.82621950848162
Vinhedo,3556701.0,-23.046738870290596,-46.97922413056001
Viradouro,3556800.0,-20.884369372466878,-48.30993648087062
Vista Alegre Do Alto,3556909.0,-21.176716207409584,-48.649521373938995
Vitória Brasil,3556958.0,-20.198317197924556,-50.485448138492366
Votorantim,3557006.0,-23.579977691222865,-47.406692198304604
Votuporanga,3557105.0,-20.457798674856196,-49.989107472442186
Zacarias,3557154.0,-21.125470117157274,-50.04938211012992
Chavantes,3557204.0,-23.046337280213066,-49.72656517366875
Estiva Gerbi,3557303.0,-22.23601705534884,-46.94315205465098
